{"routes": [{"id": "route1", "name": "Main Campus Loop", "color": "#FF5733", "stops": [{"name": "Student Center", "lat": 40.7128, "lng": -74.006}, {"name": "Library", "lat": 40.7138, "lng": -74.007}, {"name": "Science Building", "lat": 40.7148, "lng": -74.008}, {"name": "Athletic Center", "lat": 40.7158, "lng": -74.009}, {"name": "Student Center", "lat": 40.7128, "lng": -74.006}]}, {"id": "route2", "name": "Residence Hall Line", "color": "#3498DB", "stops": [{"name": "Student Center", "lat": 40.7128, "lng": -74.006}, {"name": "North Dorms", "lat": 40.7168, "lng": -74.005}, {"name": "East Dorms", "lat": 40.7158, "lng": -74.004}, {"name": "South Dorms", "lat": 40.7118, "lng": -74.005}, {"name": "Student Center", "lat": 40.7128, "lng": -74.006}]}]}